[
  {
    "course_name": "BC3 Disc Golf Course",
    "city": "Nashville",
    "state_region": "Indiana",
    "country": "USA",
    "world_rank": 92,
    "us_rank": 64,
    "state_rank": 1,
    "scopes": "us;world;state:Indiana",
    "on_trip_route": true,
    "lat": 39.207242,
    "lon": -86.246947,
    "udisc_url": "",
    "year": 2026
  },
  {
    "course_name": "Beal Slough Disc Golf Course",
    "city": "Lincoln",
    "state_region": "Nebraska",
    "country": "USA",
    "world_rank": 73,
    "us_rank": 48,
    "state_rank": 1,
    "scopes": "us;world;state:Nebraska",
    "on_trip_route": true,
    "lat": 40.808886,
    "lon": -96.707775,
    "udisc_url": "",
    "year": 2026
  },
  {
    "course_name": "Beaver Ranch Disc Golf Course",
    "city": "Conifer",
    "state_region": "Colorado",
    "country": "USA",
    "world_rank": 32,
    "us_rank": 18,
    "state_rank": 1,
    "scopes": "us;world;state:Colorado",
    "on_trip_route": true,
    "lat": 39.506435,
    "lon": -105.294097,
    "udisc_url": "",
    "year": 2026
  },
  {
    "course_name": "Championship Course at Eagles Crossing",
    "city": "New Truxton",
    "state_region": "Missouri",
    "country": "USA",
    "world_rank": 9,
    "us_rank": 4,
    "state_rank": 1,
    "scopes": "us;world;state:Missouri",
    "on_trip_route": true,
    "lat": 38.978376,
    "lon": -91.23793,
    "udisc_url": "",
    "year": 2026
  },
  {
    "course_name": "Clauder's Bogey Barn",
    "city": "Paola",
    "state_region": "Kansas",
    "country": "USA",
    "world_rank": 70,
    "us_rank": 47,
    "state_rank": 1,
    "scopes": "us;world;state:Kansas",
    "on_trip_route": true,
    "lat": 38.572332,
    "lon": -94.878648,
    "udisc_url": "",
    "year": 2026
  },
  {
    "course_name": "Flip City Disc Golf Park",
    "city": "Shelby",
    "state_region": "Michigan",
    "country": "USA",
    "world_rank": 35,
    "us_rank": 20,
    "state_rank": 1,
    "scopes": "us;world;state:Michigan",
    "on_trip_route": true,
    "lat": 43.608619,
    "lon": -86.363963,
    "udisc_url": "",
    "year": 2026
  },
  {
    "course_name": "The Canyons at Dellwood Park",
    "city": "Lockport",
    "state_region": "Illinois",
    "country": "USA",
    "world_rank": 19,
    "us_rank": 9,
    "state_rank": 1,
    "scopes": "us;world;state:Illinois",
    "on_trip_route": true,
    "lat": 41.589475,
    "lon": -88.057837,
    "udisc_url": "",
    "year": 2026
  },
  {
    "course_name": "Wildcat Bluff",
    "city": "Vinton",
    "state_region": "Iowa",
    "country": "USA",
    "world_rank": 46,
    "us_rank": 28,
    "state_rank": 1,
    "scopes": "us;world;state:Iowa",
    "on_trip_route": true,
    "lat": 42.167913,
    "lon": -92.02395,
    "udisc_url": "",
    "year": 2026
  },
  {
    "course_name": "Black Hoof Driven by Henderson Engineers",
    "city": "Lenexa",
    "state_region": "Kansas",
    "country": "USA",
    "world_rank": "",
    "us_rank": 87,
    "state_rank": 2,
    "scopes": "us;state:Kansas",
    "on_trip_route": true,
    "lat": 38.969746,
    "lon": -94.784584,
    "udisc_url": "",
    "year": 2026
  },
  {
    "course_name": "Boylan Acres: Arduous",
    "city": "Monrovia",
    "state_region": "Indiana",
    "country": "USA",
    "world_rank": 98,
    "us_rank": 69,
    "state_rank": 2,
    "scopes": "us;world;state:Indiana",
    "on_trip_route": true,
    "lat": 39.578936,
    "lon": -86.482219,
    "udisc_url": "",
    "year": 2026
  },
  {
    "course_name": "BuckSnort",
    "city": "Pine",
    "state_region": "Colorado",
    "country": "USA",
    "world_rank": 47,
    "us_rank": 29,
    "state_rank": 2,
    "scopes": "us;world;state:Colorado",
    "on_trip_route": true,
    "lat": 39.386656,
    "lon": -105.270271,
    "udisc_url": "",
    "year": 2026
  },
  {
    "course_name": "Harmony Bends",
    "city": "Columbia",
    "state_region": "Missouri",
    "country": "USA",
    "world_rank": 25,
    "us_rank": 12,
    "state_rank": 2,
    "scopes": "us;world;state:Missouri",
    "on_trip_route": true,
    "lat": 38.951883,
    "lon": -92.333737,
    "udisc_url": "",
    "year": 2026
  },
  {
    "course_name": "Kensington Toboggan",
    "city": "Milford Charter Township",
    "state_region": "Michigan",
    "country": "USA",
    "world_rank": 63,
    "us_rank": 40,
    "state_rank": 2,
    "scopes": "us;world;state:Michigan",
    "on_trip_route": true,
    "lat": 42.540607,
    "lon": -83.644784,
    "udisc_url": "",
    "year": 2026
  },
  {
    "course_name": "Lighthouse DGC",
    "city": "Omaha",
    "state_region": "Nebraska",
    "country": "USA",
    "world_rank": "",
    "us_rank": "",
    "state_rank": 2,
    "scopes": "state:Nebraska",
    "on_trip_route": true,
    "lat": 41.258746,
    "lon": -95.938376,
    "udisc_url": "",
    "year": 2026
  },
  {
    "course_name": "Northwood Park: Black",
    "city": "Morton",
    "state_region": "Illinois",
    "country": "USA",
    "world_rank": 29,
    "us_rank": 15,
    "state_rank": 2,
    "scopes": "us;world;state:Illinois",
    "on_trip_route": true,
    "lat": 40.612735,
    "lon": -89.459323,
    "udisc_url": "",
    "year": 2026
  },
  {
    "course_name": "Pickard Park",
    "city": "Indianola",
    "state_region": "Iowa",
    "country": "USA",
    "world_rank": 99,
    "us_rank": 70,
    "state_rank": 2,
    "scopes": "us;world;state:Iowa",
    "on_trip_route": true,
    "lat": 41.354025,
    "lon": -93.525249,
    "udisc_url": "",
    "year": 2026
  },
  {
    "course_name": "Bear Mountain",
    "city": "Bailey",
    "state_region": "Colorado",
    "country": "USA",
    "world_rank": 68,
    "us_rank": 45,
    "state_rank": 3,
    "scopes": "us;world;state:Colorado",
    "on_trip_route": true,
    "lat": 39.406466,
    "lon": -105.471701,
    "udisc_url": "",
    "year": 2026
  },
  {
    "course_name": "Boylan Acres: Extreme",
    "city": "Monrovia",
    "state_region": "Indiana",
    "country": "USA",
    "world_rank": "",
    "us_rank": 93,
    "state_rank": 3,
    "scopes": "us;state:Indiana",
    "on_trip_route": true,
    "lat": 39.578936,
    "lon": -86.482219,
    "udisc_url": "",
    "year": 2026
  },
  {
    "course_name": "Fairfield Park",
    "city": "Round Lake",
    "state_region": "Illinois",
    "country": "USA",
    "world_rank": "",
    "us_rank": "",
    "state_rank": 3,
    "scopes": "state:Illinois",
    "on_trip_route": true,
    "lat": 42.354994,
    "lon": -88.116635,
    "udisc_url": "",
    "year": 2026
  },
  {
    "course_name": "Kelley Park",
    "city": "McCook",
    "state_region": "Nebraska",
    "country": "USA",
    "world_rank": "",
    "us_rank": "",
    "state_rank": 3,
    "scopes": "state:Nebraska",
    "on_trip_route": true,
    "lat": 40.210735,
    "lon": -100.621169,
    "udisc_url": "",
    "year": 2026
  },
  {
    "course_name": "Knockwood: Santa Fe Lake",
    "city": "Augusta",
    "state_region": "Kansas",
    "country": "USA",
    "world_rank": "",
    "us_rank": 92,
    "state_rank": 3,
    "scopes": "us;state:Kansas",
    "on_trip_route": true,
    "lat": 37.680917,
    "lon": -96.977118,
    "udisc_url": "",
    "year": 2026
  },
  {
    "course_name": "Renegade's Trail",
    "city": "Delhi Charter Township",
    "state_region": "Michigan",
    "country": "USA",
    "world_rank": 69,
    "us_rank": 46,
    "state_rank": 3,
    "scopes": "us;world;state:Michigan",
    "on_trip_route": true,
    "lat": 42.640318,
    "lon": -84.54301,
    "udisc_url": "",
    "year": 2026
  },
  {
    "course_name": "Shaver Park",
    "city": "Cedar Rapids",
    "state_region": "Iowa",
    "country": "USA",
    "world_rank": "",
    "us_rank": "",
    "state_rank": 3,
    "scopes": "state:Iowa",
    "on_trip_route": true,
    "lat": 42.003477,
    "lon": -91.675241,
    "udisc_url": "",
    "year": 2026
  },
  {
    "course_name": "Wild Times at Eagles Crossing",
    "city": "Hawk Point",
    "state_region": "Missouri",
    "country": "USA",
    "world_rank": 52,
    "us_rank": 34,
    "state_rank": 3,
    "scopes": "us;world;state:Missouri",
    "on_trip_route": true,
    "lat": 38.970878,
    "lon": -91.131258,
    "udisc_url": "",
    "year": 2026
  },
  {
    "course_name": "Arvesta Sport Complex",
    "city": "South Haven",
    "state_region": "Michigan",
    "country": "USA",
    "world_rank": 78,
    "us_rank": 52,
    "state_rank": 4,
    "scopes": "us;world;state:Michigan",
    "on_trip_route": true,
    "lat": 42.403087,
    "lon": -86.273641,
    "udisc_url": "",
    "year": 2026
  },
  {
    "course_name": "Coralville Disc Golf Altmaier Park",
    "city": "Coralville",
    "state_region": "Iowa",
    "country": "USA",
    "world_rank": "",
    "us_rank": "",
    "state_rank": 4,
    "scopes": "state:Iowa",
    "on_trip_route": true,
    "lat": 41.675998,
    "lon": -91.580705,
    "udisc_url": "",
    "year": 2026
  },
  {
    "course_name": "New Melle Lakes",
    "city": "Wentzville",
    "state_region": "Missouri",
    "country": "USA",
    "world_rank": "",
    "us_rank": 82,
    "state_rank": 4,
    "scopes": "us;state:Missouri",
    "on_trip_route": true,
    "lat": 38.824414,
    "lon": -90.868312,
    "udisc_url": "",
    "year": 2026
  },
  {
    "course_name": "Northwood Park: Blue",
    "city": "Morton",
    "state_region": "Illinois",
    "country": "USA",
    "world_rank": "",
    "us_rank": "",
    "state_rank": 4,
    "scopes": "state:Illinois",
    "on_trip_route": true,
    "lat": 40.612735,
    "lon": -89.459323,
    "udisc_url": "",
    "year": 2026
  },
  {
    "course_name": "Rogers Lakewood Park Disc Golf Course",
    "city": "Valparaiso",
    "state_region": "Indiana",
    "country": "USA",
    "world_rank": "",
    "us_rank": "",
    "state_rank": 4,
    "scopes": "state:Indiana",
    "on_trip_route": true,
    "lat": 41.467255,
    "lon": -87.060449,
    "udisc_url": "",
    "year": 2026
  },
  {
    "course_name": "Spoon Creek Disc Golf Course",
    "city": "Gardner",
    "state_region": "Kansas",
    "country": "USA",
    "world_rank": "",
    "us_rank": "",
    "state_rank": 4,
    "scopes": "state:Kansas",
    "on_trip_route": true,
    "lat": 38.810925,
    "lon": -94.927296,
    "udisc_url": "",
    "year": 2026
  },
  {
    "course_name": "Windmill State Recreation Area",
    "city": "Gibbon",
    "state_region": "Nebraska",
    "country": "USA",
    "world_rank": "",
    "us_rank": "",
    "state_rank": 4,
    "scopes": "state:Nebraska",
    "on_trip_route": true,
    "lat": 40.708453,
    "lon": -98.838466,
    "udisc_url": "",
    "year": 2026
  },
  {
    "course_name": "Wondervu Disc Golf Course",
    "city": "Golden",
    "state_region": "Colorado",
    "country": "USA",
    "world_rank": "",
    "us_rank": "",
    "state_rank": 4,
    "scopes": "state:Colorado",
    "on_trip_route": true,
    "lat": 39.754635,
    "lon": -105.22058,
    "udisc_url": "",
    "year": 2026
  },
  {
    "course_name": "Champions Landing: Black",
    "city": "Emporia",
    "state_region": "Kansas",
    "country": "USA",
    "world_rank": "",
    "us_rank": "",
    "state_rank": 5,
    "scopes": "state:Kansas",
    "on_trip_route": true,
    "lat": 38.404005,
    "lon": -96.181623,
    "udisc_url": "",
    "year": 2026
  },
  {
    "course_name": "Cottonmill",
    "city": "Kearney",
    "state_region": "Nebraska",
    "country": "USA",
    "world_rank": "",
    "us_rank": "",
    "state_rank": 5,
    "scopes": "state:Nebraska",
    "on_trip_route": true,
    "lat": 40.490622,
    "lon": -98.947234,
    "udisc_url": "",
    "year": 2026
  },
  {
    "course_name": "Fox Prairie",
    "city": "McLeansboro",
    "state_region": "Illinois",
    "country": "USA",
    "world_rank": "",
    "us_rank": "",
    "state_rank": 5,
    "scopes": "state:Illinois",
    "on_trip_route": true,
    "lat": 38.093381,
    "lon": -88.535608,
    "udisc_url": "",
    "year": 2026
  },
  {
    "course_name": "George Wilson Park Disc Golf Course",
    "city": "Mishawaka",
    "state_region": "Indiana",
    "country": "USA",
    "world_rank": "",
    "us_rank": "",
    "state_rank": 5,
    "scopes": "state:Indiana",
    "on_trip_route": true,
    "lat": 41.661164,
    "lon": -86.180703,
    "udisc_url": "",
    "year": 2026
  },
  {
    "course_name": "North Bluff",
    "city": "Gladstone",
    "state_region": "Michigan",
    "country": "USA",
    "world_rank": "",
    "us_rank": 98,
    "state_rank": 5,
    "scopes": "us;state:Michigan",
    "on_trip_route": true,
    "lat": 45.860697,
    "lon": -87.038871,
    "udisc_url": "",
    "year": 2026
  },
  {
    "course_name": "Northside DGC",
    "city": "Springfield",
    "state_region": "Missouri",
    "country": "USA",
    "world_rank": "",
    "us_rank": "",
    "state_rank": 5,
    "scopes": "state:Missouri",
    "on_trip_route": true,
    "lat": 37.208173,
    "lon": -93.292271,
    "udisc_url": "",
    "year": 2026
  },
  {
    "course_name": "Twisted Cedars Dgc",
    "city": "Cokedale",
    "state_region": "Colorado",
    "country": "USA",
    "world_rank": "",
    "us_rank": "",
    "state_rank": 5,
    "scopes": "state:Colorado",
    "on_trip_route": true,
    "lat": 37.145297,
    "lon": -104.621099,
    "udisc_url": "",
    "year": 2026
  },
  {
    "course_name": "Walnut Ridge Recreation Area",
    "city": "Johnston",
    "state_region": "Iowa",
    "country": "USA",
    "world_rank": "",
    "us_rank": "",
    "state_rank": 5,
    "scopes": "state:Iowa",
    "on_trip_route": true,
    "lat": 41.673152,
    "lon": -93.697339,
    "udisc_url": "",
    "year": 2026
  },
  {
    "course_name": "Anna Page Park: West",
    "city": "Rockford",
    "state_region": "Illinois",
    "country": "USA",
    "world_rank": "",
    "us_rank": "",
    "state_rank": 6,
    "scopes": "state:Illinois",
    "on_trip_route": true,
    "lat": 42.271394,
    "lon": -89.093966,
    "udisc_url": "",
    "year": 2026
  },
  {
    "course_name": "Bad Rock Creek & BRC Championship Course",
    "city": "Liberty",
    "state_region": "Missouri",
    "country": "USA",
    "world_rank": "",
    "us_rank": "",
    "state_rank": 6,
    "scopes": "state:Missouri",
    "on_trip_route": true,
    "lat": 39.246479,
    "lon": -94.419079,
    "udisc_url": "",
    "year": 2026
  },
  {
    "course_name": "Cedar Grove",
    "city": "Sunman",
    "state_region": "Indiana",
    "country": "USA",
    "world_rank": "",
    "us_rank": "",
    "state_rank": 6,
    "scopes": "state:Indiana",
    "on_trip_route": true,
    "lat": 39.236997,
    "lon": -85.094681,
    "udisc_url": "",
    "year": 2026
  },
  {
    "course_name": "Foxtail Farm",
    "city": "Tonganoxie",
    "state_region": "Kansas",
    "country": "USA",
    "world_rank": "",
    "us_rank": "",
    "state_rank": 6,
    "scopes": "state:Kansas",
    "on_trip_route": true,
    "lat": 39.109724,
    "lon": -95.087746,
    "udisc_url": "",
    "year": 2026
  },
  {
    "course_name": "Glen Isle DGC",
    "city": "Bailey",
    "state_region": "Colorado",
    "country": "USA",
    "world_rank": "",
    "us_rank": "",
    "state_rank": 6,
    "scopes": "state:Colorado",
    "on_trip_route": true,
    "lat": 39.406466,
    "lon": -105.471701,
    "udisc_url": "",
    "year": 2026
  },
  {
    "course_name": "Lake Hastings",
    "city": "Hastings",
    "state_region": "Nebraska",
    "country": "USA",
    "world_rank": "",
    "us_rank": "",
    "state_rank": 6,
    "scopes": "state:Nebraska",
    "on_trip_route": true,
    "lat": 40.612404,
    "lon": -98.38677,
    "udisc_url": "",
    "year": 2026
  },
  {
    "course_name": "Meyer Broadway: North",
    "city": "Three Rivers",
    "state_region": "Michigan",
    "country": "USA",
    "world_rank": "",
    "us_rank": "",
    "state_rank": 6,
    "scopes": "state:Michigan",
    "on_trip_route": true,
    "lat": 41.944272,
    "lon": -85.634622,
    "udisc_url": "",
    "year": 2026
  },
  {
    "course_name": "Sunnyside",
    "city": "Atlantic",
    "state_region": "Iowa",
    "country": "USA",
    "world_rank": "",
    "us_rank": "",
    "state_rank": 6,
    "scopes": "state:Iowa",
    "on_trip_route": true,
    "lat": 41.397187,
    "lon": -95.025415,
    "udisc_url": "",
    "year": 2026
  },
  {
    "course_name": "Bald Mountain",
    "city": "Orion Charter Township",
    "state_region": "Michigan",
    "country": "USA",
    "world_rank": "",
    "us_rank": "",
    "state_rank": 7,
    "scopes": "state:Michigan",
    "on_trip_route": true,
    "lat": 42.731493,
    "lon": -83.220455,
    "udisc_url": "",
    "year": 2026
  },
  {
    "course_name": "Fall Creek Disc Golf Course",
    "city": "Indianapolis",
    "state_region": "Indiana",
    "country": "USA",
    "world_rank": "",
    "us_rank": "",
    "state_rank": 7,
    "scopes": "state:Indiana",
    "on_trip_route": true,
    "lat": 39.768333,
    "lon": -86.15835,
    "udisc_url": "",
    "year": 2026
  },
  {
    "course_name": "Hanna Hills Disc Golf Course",
    "city": "Laquey",
    "state_region": "Missouri",
    "country": "USA",
    "world_rank": "",
    "us_rank": "",
    "state_rank": 7,
    "scopes": "state:Missouri",
    "on_trip_route": true,
    "lat": 37.770319,
    "lon": -92.303502,
    "udisc_url": "",
    "year": 2026
  },
  {
    "course_name": "Longview",
    "city": "Ozawkie",
    "state_region": "Kansas",
    "country": "USA",
    "world_rank": "",
    "us_rank": "",
    "state_rank": 7,
    "scopes": "state:Kansas",
    "on_trip_route": true,
    "lat": 39.233332,
    "lon": -95.466919,
    "udisc_url": "",
    "year": 2026
  },
  {
    "course_name": "Prickly Pines Disc Golf Course",
    "city": "Elizabeth",
    "state_region": "Colorado",
    "country": "USA",
    "world_rank": "",
    "us_rank": "",
    "state_rank": 7,
    "scopes": "state:Colorado",
    "on_trip_route": true,
    "lat": 39.36676,
    "lon": -104.589719,
    "udisc_url": "",
    "year": 2026
  },
  {
    "course_name": "Scott Whitcomb Memorial [Tierra Park]",
    "city": "Lincoln",
    "state_region": "Nebraska",
    "country": "USA",
    "world_rank": "",
    "us_rank": "",
    "state_rank": 7,
    "scopes": "state:Nebraska",
    "on_trip_route": true,
    "lat": 40.808886,
    "lon": -96.707775,
    "udisc_url": "",
    "year": 2026
  },
  {
    "course_name": "Southwoods Park Disc Golf Course",
    "city": "West Des Moines",
    "state_region": "Iowa",
    "country": "USA",
    "world_rank": "",
    "us_rank": "",
    "state_rank": 7,
    "scopes": "state:Iowa",
    "on_trip_route": true,
    "lat": 41.564448,
    "lon": -93.759406,
    "udisc_url": "",
    "year": 2026
  },
  {
    "course_name": "The Oaks",
    "city": "Mokena",
    "state_region": "Illinois",
    "country": "USA",
    "world_rank": "",
    "us_rank": "",
    "state_rank": 7,
    "scopes": "state:Illinois",
    "on_trip_route": true,
    "lat": 41.524859,
    "lon": -87.90601,
    "udisc_url": "",
    "year": 2026
  },
  {
    "course_name": "Arapahoe Basin DGC",
    "city": "Keystone",
    "state_region": "Colorado",
    "country": "USA",
    "world_rank": "",
    "us_rank": "",
    "state_rank": 8,
    "scopes": "state:Colorado",
    "on_trip_route": true,
    "lat": 39.596564,
    "lon": -105.934034,
    "udisc_url": "",
    "year": 2026
  },
  {
    "course_name": "Brookwood Park",
    "city": "Waverly",
    "state_region": "Iowa",
    "country": "USA",
    "world_rank": "",
    "us_rank": "",
    "state_rank": 8,
    "scopes": "state:Iowa",
    "on_trip_route": true,
    "lat": 42.720671,
    "lon": -92.46244,
    "udisc_url": "",
    "year": 2026
  },
  {
    "course_name": "Camden 2",
    "city": "Milan",
    "state_region": "Illinois",
    "country": "USA",
    "world_rank": "",
    "us_rank": "",
    "state_rank": 8,
    "scopes": "state:Illinois",
    "on_trip_route": true,
    "lat": 41.453089,
    "lon": -90.57208,
    "udisc_url": "",
    "year": 2026
  },
  {
    "course_name": "Cedar Ridge",
    "city": "Bonner Springs",
    "state_region": "Kansas",
    "country": "USA",
    "world_rank": "",
    "us_rank": "",
    "state_rank": 8,
    "scopes": "state:Kansas",
    "on_trip_route": true,
    "lat": 39.059713,
    "lon": -94.88376,
    "udisc_url": "",
    "year": 2026
  },
  {
    "course_name": "Green Lake DiscGolfPark",
    "city": "Interlochen",
    "state_region": "Michigan",
    "country": "USA",
    "world_rank": "",
    "us_rank": "",
    "state_rank": 8,
    "scopes": "state:Michigan",
    "on_trip_route": true,
    "lat": 44.64977,
    "lon": -85.767847,
    "udisc_url": "",
    "year": 2026
  },
  {
    "course_name": "Lemon Lake County Park: Gold",
    "city": "Crown Point",
    "state_region": "Indiana",
    "country": "USA",
    "world_rank": "",
    "us_rank": "",
    "state_rank": 8,
    "scopes": "state:Indiana",
    "on_trip_route": true,
    "lat": 41.416981,
    "lon": -87.365314,
    "udisc_url": "",
    "year": 2026
  },
  {
    "course_name": "Max E. Roper Interstate Park: West",
    "city": "Lincoln",
    "state_region": "Nebraska",
    "country": "USA",
    "world_rank": "",
    "us_rank": "",
    "state_rank": 8,
    "scopes": "state:Nebraska",
    "on_trip_route": true,
    "lat": 40.808886,
    "lon": -96.707775,
    "udisc_url": "",
    "year": 2026
  },
  {
    "course_name": "Sunset Ridge",
    "city": "Grain Valley",
    "state_region": "Missouri",
    "country": "USA",
    "world_rank": "",
    "us_rank": "",
    "state_rank": 8,
    "scopes": "state:Missouri",
    "on_trip_route": true,
    "lat": 39.018765,
    "lon": -94.197645,
    "udisc_url": "",
    "year": 2026
  },
  {
    "course_name": "Black Locust: South Green",
    "city": "Milford Charter Township",
    "state_region": "Michigan",
    "country": "USA",
    "world_rank": "",
    "us_rank": "",
    "state_rank": 9,
    "scopes": "state:Michigan",
    "on_trip_route": true,
    "lat": 42.565138,
    "lon": -83.618829,
    "udisc_url": "",
    "year": 2026
  },
  {
    "course_name": "Fel-Pro RRR DiscGolfPark",
    "city": "Cary",
    "state_region": "Illinois",
    "country": "USA",
    "world_rank": "",
    "us_rank": "",
    "state_rank": 9,
    "scopes": "state:Illinois",
    "on_trip_route": true,
    "lat": 42.209116,
    "lon": -88.240021,
    "udisc_url": "",
    "year": 2026
  },
  {
    "course_name": "Ghost Town",
    "city": "Central City",
    "state_region": "Colorado",
    "country": "USA",
    "world_rank": "",
    "us_rank": "",
    "state_rank": 9,
    "scopes": "state:Colorado",
    "on_trip_route": true,
    "lat": 39.801932,
    "lon": -105.514163,
    "udisc_url": "",
    "year": 2026
  },
  {
    "course_name": "Jones Park: East",
    "city": "Emporia",
    "state_region": "Kansas",
    "country": "USA",
    "world_rank": "",
    "us_rank": "",
    "state_rank": 9,
    "scopes": "state:Kansas",
    "on_trip_route": true,
    "lat": 38.425373,
    "lon": -96.198864,
    "udisc_url": "",
    "year": 2026
  },
  {
    "course_name": "Mastodon DGC at Purdue Fort Wayne",
    "city": "Fort Wayne",
    "state_region": "Indiana",
    "country": "USA",
    "world_rank": "",
    "us_rank": "",
    "state_rank": 9,
    "scopes": "state:Indiana",
    "on_trip_route": true,
    "lat": 41.07999,
    "lon": -85.138601,
    "udisc_url": "",
    "year": 2026
  },
  {
    "course_name": "Treasure Cove",
    "city": "Council Bluffs",
    "state_region": "Iowa",
    "country": "USA",
    "world_rank": "",
    "us_rank": "",
    "state_rank": 9,
    "scopes": "state:Iowa",
    "on_trip_route": true,
    "lat": 41.258841,
    "lon": -95.851948,
    "udisc_url": "",
    "year": 2026
  },
  {
    "course_name": "Water Works Park DGC",
    "city": "Kansas City",
    "state_region": "Missouri",
    "country": "USA",
    "world_rank": "",
    "us_rank": "",
    "state_rank": 9,
    "scopes": "state:Missouri",
    "on_trip_route": true,
    "lat": 39.100105,
    "lon": -94.578142,
    "udisc_url": "",
    "year": 2026
  },
  {
    "course_name": "Wildwood Disc Golf Course",
    "city": "Nebraska City",
    "state_region": "Nebraska",
    "country": "USA",
    "world_rank": "",
    "us_rank": "",
    "state_rank": 9,
    "scopes": "state:Nebraska",
    "on_trip_route": true,
    "lat": 40.676526,
    "lon": -95.858694,
    "udisc_url": "",
    "year": 2026
  },
  {
    "course_name": "Ewing Park",
    "city": "Des Moines",
    "state_region": "Iowa",
    "country": "USA",
    "world_rank": "",
    "us_rank": "",
    "state_rank": 10,
    "scopes": "state:Iowa",
    "on_trip_route": true,
    "lat": 41.535235,
    "lon": -93.583529,
    "udisc_url": "",
    "year": 2026
  },
  {
    "course_name": "Hammond Hills",
    "city": "Hastings",
    "state_region": "Michigan",
    "country": "USA",
    "world_rank": "",
    "us_rank": "",
    "state_rank": 10,
    "scopes": "state:Michigan",
    "on_trip_route": true,
    "lat": 42.665339,
    "lon": -85.312082,
    "udisc_url": "",
    "year": 2026
  },
  {
    "course_name": "Lake Springfield DGC",
    "city": "Springfield",
    "state_region": "Missouri",
    "country": "USA",
    "world_rank": "",
    "us_rank": "",
    "state_rank": 10,
    "scopes": "state:Missouri",
    "on_trip_route": true,
    "lat": 37.208173,
    "lon": -93.292271,
    "udisc_url": "",
    "year": 2026
  },
  {
    "course_name": "Lemon Lake County Park: Silver",
    "city": "Crown Point",
    "state_region": "Indiana",
    "country": "USA",
    "world_rank": "",
    "us_rank": "",
    "state_rank": 10,
    "scopes": "state:Indiana",
    "on_trip_route": true,
    "lat": 41.416981,
    "lon": -87.365314,
    "udisc_url": "",
    "year": 2026
  },
  {
    "course_name": "Little Scraggy Disc Golf Course",
    "city": "Sedalia",
    "state_region": "Colorado",
    "country": "USA",
    "world_rank": "",
    "us_rank": "",
    "state_rank": 10,
    "scopes": "state:Colorado",
    "on_trip_route": true,
    "lat": 39.443658,
    "lon": -104.976554,
    "udisc_url": "",
    "year": 2026
  },
  {
    "course_name": "Peter Pan Park: Optimist",
    "city": "Emporia",
    "state_region": "Kansas",
    "country": "USA",
    "world_rank": "",
    "us_rank": "",
    "state_rank": 10,
    "scopes": "state:Kansas",
    "on_trip_route": true,
    "lat": 38.404005,
    "lon": -96.181623,
    "udisc_url": "",
    "year": 2026
  },
  {
    "course_name": "Seymour Smith Park",
    "city": "La Vista",
    "state_region": "Nebraska",
    "country": "USA",
    "world_rank": "",
    "us_rank": "",
    "state_rank": 10,
    "scopes": "state:Nebraska",
    "on_trip_route": true,
    "lat": 41.183268,
    "lon": -96.032404,
    "udisc_url": "",
    "year": 2026
  },
  {
    "course_name": "The Quarry at Rotary Park",
    "city": "La Salle",
    "state_region": "Illinois",
    "country": "USA",
    "world_rank": "",
    "us_rank": "",
    "state_rank": 10,
    "scopes": "state:Illinois",
    "on_trip_route": true,
    "lat": 41.333368,
    "lon": -89.09175,
    "udisc_url": "",
    "year": 2026
  },
  {
    "course_name": "Ale Disc Golf Center: White Course",
    "city": "Nol",
    "state_region": "",
    "country": "Sweden",
    "world_rank": 1,
    "us_rank": "",
    "state_rank": "",
    "scopes": "world",
    "on_trip_route": false,
    "lat": 57.917319,
    "lon": 12.065799,
    "udisc_url": "",
    "year": 2026
  },
  {
    "course_name": "Maple Hill",
    "city": "Leicester",
    "state_region": "Massachusetts",
    "country": "USA",
    "world_rank": 5,
    "us_rank": 1,
    "state_rank": "",
    "scopes": "us;world",
    "on_trip_route": false,
    "lat": 42.275926,
    "lon": -71.899518,
    "udisc_url": "",
    "year": 2026
  },
  {
    "course_name": "Brewster Ridge Disc Golf Course",
    "city": "Cambridge",
    "state_region": "Vermont",
    "country": "USA",
    "world_rank": 6,
    "us_rank": 2,
    "state_rank": "",
    "scopes": "us;world",
    "on_trip_route": false,
    "lat": 44.644946,
    "lon": -72.876608,
    "udisc_url": "",
    "year": 2026
  },
  {
    "course_name": "Krokhol Disc Golf Course",
    "city": "Siggerud",
    "state_region": "",
    "country": "Norway",
    "world_rank": 2,
    "us_rank": "",
    "state_rank": "",
    "scopes": "world",
    "on_trip_route": false,
    "lat": 59.790921,
    "lon": 10.881878,
    "udisc_url": "",
    "year": 2026
  },
  {
    "course_name": "Ale Disc Golf Center: Yellow Course",
    "city": "Nol",
    "state_region": "",
    "country": "Sweden",
    "world_rank": 3,
    "us_rank": "",
    "state_rank": "",
    "scopes": "world",
    "on_trip_route": false,
    "lat": 57.917319,
    "lon": 12.065799,
    "udisc_url": "",
    "year": 2026
  },
  {
    "course_name": "Fox Run Meadows",
    "city": "Cambridge",
    "state_region": "Vermont",
    "country": "USA",
    "world_rank": 8,
    "us_rank": 3,
    "state_rank": "",
    "scopes": "us;world",
    "on_trip_route": false,
    "lat": 44.644946,
    "lon": -72.876608,
    "udisc_url": "",
    "year": 2026
  },
  {
    "course_name": "KIPPIS Pro DiscGolfPark @ kippis.org",
    "city": "Heinola",
    "state_region": "",
    "country": "Finland",
    "world_rank": 4,
    "us_rank": "",
    "state_rank": "",
    "scopes": "world",
    "on_trip_route": false,
    "lat": 61.202719,
    "lon": 26.031371,
    "udisc_url": "",
    "year": 2026
  },
  {
    "course_name": "Blue Ribbon Pines",
    "city": "East Bethel",
    "state_region": "Minnesota",
    "country": "USA",
    "world_rank": 14,
    "us_rank": 5,
    "state_rank": "",
    "scopes": "us;world",
    "on_trip_route": false,
    "lat": 45.334691,
    "lon": -93.22292,
    "udisc_url": "",
    "year": 2026
  },
  {
    "course_name": "The Diavolo DGC at New Hope Park",
    "city": "Cary",
    "state_region": "North Carolina",
    "country": "USA",
    "world_rank": 15,
    "us_rank": 6,
    "state_rank": "",
    "scopes": "us;world",
    "on_trip_route": false,
    "lat": 35.788289,
    "lon": -78.781208,
    "udisc_url": "",
    "year": 2026
  },
  {
    "course_name": "Lundbyparken",
    "city": "Enköping",
    "state_region": "",
    "country": "Sweden",
    "world_rank": 7,
    "us_rank": "",
    "state_rank": "",
    "scopes": "world",
    "on_trip_route": false,
    "lat": 59.635612,
    "lon": 17.077856,
    "udisc_url": "",
    "year": 2026
  },
  {
    "course_name": "Persimmon Ridge DGC",
    "city": "Greenbrier",
    "state_region": "Arkansas",
    "country": "USA",
    "world_rank": 17,
    "us_rank": 7,
    "state_rank": "",
    "scopes": "us;world",
    "on_trip_route": false,
    "lat": 35.233927,
    "lon": -92.387784,
    "udisc_url": "",
    "year": 2026
  },
  {
    "course_name": "Mile Marker 63",
    "city": "East Brookfield",
    "state_region": "Massachusetts",
    "country": "USA",
    "world_rank": 18,
    "us_rank": 8,
    "state_rank": "",
    "scopes": "us;world",
    "on_trip_route": false,
    "lat": 42.226196,
    "lon": -72.049816,
    "udisc_url": "",
    "year": 2026
  },
  {
    "course_name": "Caliber DGC",
    "city": "Sandpoint",
    "state_region": "Idaho",
    "country": "USA",
    "world_rank": 20,
    "us_rank": 10,
    "state_rank": "",
    "scopes": "us;world",
    "on_trip_route": false,
    "lat": 48.276131,
    "lon": -116.548783,
    "udisc_url": "",
    "year": 2026
  },
  {
    "course_name": "Uspastorp DiscGolfPark",
    "city": "Nol",
    "state_region": "",
    "country": "Sweden",
    "world_rank": 10,
    "us_rank": "",
    "state_rank": "",
    "scopes": "world",
    "on_trip_route": false,
    "lat": 57.917319,
    "lon": 12.065799,
    "udisc_url": "",
    "year": 2026
  },
  {
    "course_name": "Idlewild",
    "city": "Burlington",
    "state_region": "Kentucky",
    "country": "USA",
    "world_rank": 22,
    "us_rank": 11,
    "state_rank": "",
    "scopes": "us;world",
    "on_trip_route": false,
    "lat": 39.041879,
    "lon": -84.733471,
    "udisc_url": "",
    "year": 2026
  },
  {
    "course_name": "Åkeslund DiscGolfCenter",
    "city": "Hörby",
    "state_region": "",
    "country": "Sweden",
    "world_rank": 11,
    "us_rank": "",
    "state_rank": "",
    "scopes": "world",
    "on_trip_route": false,
    "lat": 55.851152,
    "lon": 13.658122,
    "udisc_url": "",
    "year": 2026
  },
  {
    "course_name": "Ymergårdens Discgolfcenter: Gold Course",
    "city": "Brämhult",
    "state_region": "",
    "country": "Sweden",
    "world_rank": 12,
    "us_rank": "",
    "state_rank": "",
    "scopes": "world",
    "on_trip_route": false,
    "lat": 57.732434,
    "lon": 13.003586,
    "udisc_url": "",
    "year": 2026
  },
  {
    "course_name": "Hobb's Farm Disc Golf",
    "city": "Carrollton",
    "state_region": "Georgia",
    "country": "USA",
    "world_rank": 26,
    "us_rank": 13,
    "state_rank": "",
    "scopes": "us;world",
    "on_trip_route": false,
    "lat": 33.58011,
    "lon": -85.076611,
    "udisc_url": "",
    "year": 2026
  },
  {
    "course_name": "Karidalen FrisbeeGolfPark",
    "city": "Lena",
    "state_region": "",
    "country": "Norway",
    "world_rank": 13,
    "us_rank": "",
    "state_rank": "",
    "scopes": "world",
    "on_trip_route": false,
    "lat": 60.673972,
    "lon": 10.813446,
    "udisc_url": "",
    "year": 2026
  },
  {
    "course_name": "Sandy Point Disc Golf Ranch",
    "city": "Lac du Flambeau",
    "state_region": "Wisconsin",
    "country": "USA",
    "world_rank": 28,
    "us_rank": 14,
    "state_rank": "",
    "scopes": "us;world",
    "on_trip_route": false,
    "lat": 45.970277,
    "lon": -89.892802,
    "udisc_url": "",
    "year": 2026
  },
  {
    "course_name": "Faylor Lake DiscGolfPark",
    "city": "Beaver Springs",
    "state_region": "Pennsylvania",
    "country": "USA",
    "world_rank": 30,
    "us_rank": 16,
    "state_rank": "",
    "scopes": "us;world",
    "on_trip_route": false,
    "lat": 40.742683,
    "lon": -77.229775,
    "udisc_url": "",
    "year": 2026
  },
  {
    "course_name": "Glåmos Diskgolfbane",
    "city": "Glåmos",
    "state_region": "",
    "country": "Norway",
    "world_rank": 16,
    "us_rank": "",
    "state_rank": "",
    "scopes": "world",
    "on_trip_route": false,
    "lat": 62.672405,
    "lon": 11.429464,
    "udisc_url": "",
    "year": 2026
  },
  {
    "course_name": "Blue Goose",
    "city": "Frankfort",
    "state_region": "Kentucky",
    "country": "USA",
    "world_rank": 31,
    "us_rank": 17,
    "state_rank": "",
    "scopes": "us;world",
    "on_trip_route": false,
    "lat": 38.200905,
    "lon": -84.873284,
    "udisc_url": "",
    "year": 2026
  },
  {
    "course_name": "Bryant Lake Park",
    "city": "Eden Prairie",
    "state_region": "Minnesota",
    "country": "USA",
    "world_rank": 33,
    "us_rank": 19,
    "state_rank": "",
    "scopes": "us;world",
    "on_trip_route": false,
    "lat": 44.884721,
    "lon": -93.430668,
    "udisc_url": "",
    "year": 2026
  },
  {
    "course_name": "Meadowbrook Orchards",
    "city": "Sterling",
    "state_region": "Massachusetts",
    "country": "USA",
    "world_rank": 36,
    "us_rank": 21,
    "state_rank": "",
    "scopes": "us;world",
    "on_trip_route": false,
    "lat": 42.423923,
    "lon": -71.720939,
    "udisc_url": "",
    "year": 2026
  },
  {
    "course_name": "Äppelgården i Båstad",
    "city": "Båstad",
    "state_region": "",
    "country": "Sweden",
    "world_rank": 21,
    "us_rank": "",
    "state_rank": "",
    "scopes": "world",
    "on_trip_route": false,
    "lat": 56.426896,
    "lon": 12.860879,
    "udisc_url": "",
    "year": 2026
  },
  {
    "course_name": "Sabattus Disc Golf: Hawk",
    "city": "Sabattus",
    "state_region": "Maine",
    "country": "USA",
    "world_rank": 37,
    "us_rank": 22,
    "state_rank": "",
    "scopes": "us;world",
    "on_trip_route": false,
    "lat": 44.120015,
    "lon": -70.107653,
    "udisc_url": "",
    "year": 2026
  },
  {
    "course_name": "Järva Discgolf Park",
    "city": "Kista",
    "state_region": "",
    "country": "Sweden",
    "world_rank": 23,
    "us_rank": "",
    "state_rank": "",
    "scopes": "world",
    "on_trip_route": false,
    "lat": 59.403124,
    "lon": 17.942422,
    "udisc_url": "",
    "year": 2026
  },
  {
    "course_name": "Neatman Creek",
    "city": "Germanton",
    "state_region": "North Carolina",
    "country": "USA",
    "world_rank": 38,
    "us_rank": 23,
    "state_rank": "",
    "scopes": "us;world",
    "on_trip_route": false,
    "lat": 36.27023,
    "lon": -80.226653,
    "udisc_url": "",
    "year": 2026
  },
  {
    "course_name": "Häfla Bruks DiscGolfPark",
    "city": "Rejmyre",
    "state_region": "",
    "country": "Sweden",
    "world_rank": 24,
    "us_rank": "",
    "state_rank": "",
    "scopes": "world",
    "on_trip_route": false,
    "lat": 58.830057,
    "lon": 15.931367,
    "udisc_url": "",
    "year": 2026
  },
  {
    "course_name": "New London Tech DGC",
    "city": "Forest",
    "state_region": "Virginia",
    "country": "USA",
    "world_rank": 41,
    "us_rank": 24,
    "state_rank": "",
    "scopes": "us;world",
    "on_trip_route": false,
    "lat": 37.366635,
    "lon": -79.274257,
    "udisc_url": "",
    "year": 2026
  },
  {
    "course_name": "Echo Valley at Hoffmann Reserve",
    "city": "Waynesville",
    "state_region": "Ohio",
    "country": "USA",
    "world_rank": 42,
    "us_rank": 25,
    "state_rank": "",
    "scopes": "us;world",
    "on_trip_route": false,
    "lat": 39.529782,
    "lon": -84.086601,
    "udisc_url": "",
    "year": 2026
  },
  {
    "course_name": "Rollin Ridge",
    "city": "Reedsville",
    "state_region": "Wisconsin",
    "country": "USA",
    "world_rank": 43,
    "us_rank": 26,
    "state_rank": "",
    "scopes": "us;world",
    "on_trip_route": false,
    "lat": 44.162242,
    "lon": -87.990597,
    "udisc_url": "",
    "year": 2026
  },
  {
    "course_name": "Deer Lakes Park",
    "city": "Tarentum",
    "state_region": "Pennsylvania",
    "country": "USA",
    "world_rank": 45,
    "us_rank": 27,
    "state_rank": "",
    "scopes": "us;world",
    "on_trip_route": false,
    "lat": 40.602133,
    "lon": -79.754515,
    "udisc_url": "",
    "year": 2026
  },
  {
    "course_name": "Øverås Diskgolfpark",
    "city": "Øverås",
    "state_region": "",
    "country": "Norway",
    "world_rank": 27,
    "us_rank": "",
    "state_rank": "",
    "scopes": "world",
    "on_trip_route": false,
    "lat": 62.63342,
    "lon": 8.120169,
    "udisc_url": "",
    "year": 2026
  },
  {
    "course_name": "Stafford Woods",
    "city": "Voorhees Township",
    "state_region": "New Jersey",
    "country": "USA",
    "world_rank": 48,
    "us_rank": 30,
    "state_rank": "",
    "scopes": "us;world",
    "on_trip_route": false,
    "lat": 39.857949,
    "lon": -74.969398,
    "udisc_url": "",
    "year": 2026
  },
  {
    "course_name": "Standing Rocks",
    "city": "Stevens Point",
    "state_region": "Wisconsin",
    "country": "USA",
    "world_rank": 49,
    "us_rank": 31,
    "state_rank": "",
    "scopes": "us;world",
    "on_trip_route": false,
    "lat": 44.523447,
    "lon": -89.584446,
    "udisc_url": "",
    "year": 2026
  },
  {
    "course_name": "Harmon Hills",
    "city": "Limestone",
    "state_region": "Tennessee",
    "country": "USA",
    "world_rank": 50,
    "us_rank": 32,
    "state_rank": "",
    "scopes": "us;world",
    "on_trip_route": false,
    "lat": 36.22816,
    "lon": -82.630428,
    "udisc_url": "",
    "year": 2026
  },
  {
    "course_name": "The Regulator at Rock Creek",
    "city": "Burlington",
    "state_region": "North Carolina",
    "country": "USA",
    "world_rank": 51,
    "us_rank": 33,
    "state_rank": "",
    "scopes": "us;world",
    "on_trip_route": false,
    "lat": 36.095692,
    "lon": -79.437799,
    "udisc_url": "",
    "year": 2026
  },
  {
    "course_name": "Lille Leland",
    "city": "Sør-audnedal",
    "state_region": "",
    "country": "Norway",
    "world_rank": 34,
    "us_rank": "",
    "state_rank": "",
    "scopes": "world",
    "on_trip_route": false,
    "lat": "",
    "lon": "",
    "udisc_url": "",
    "year": 2026
  },
  {
    "course_name": "Ledgewood Disc Golf",
    "city": "Northwood",
    "state_region": "New Hampshire",
    "country": "USA",
    "world_rank": 54,
    "us_rank": 35,
    "state_rank": "",
    "scopes": "us;world",
    "on_trip_route": false,
    "lat": 43.194664,
    "lon": -71.151581,
    "udisc_url": "",
    "year": 2026
  },
  {
    "course_name": "Wilcox Memorial Park",
    "city": "Stanfordville",
    "state_region": "New York",
    "country": "USA",
    "world_rank": 55,
    "us_rank": 36,
    "state_rank": "",
    "scopes": "us;world",
    "on_trip_route": false,
    "lat": 41.867611,
    "lon": -73.713388,
    "udisc_url": "",
    "year": 2026
  },
  {
    "course_name": "Olympus DGC",
    "city": "Brooksville",
    "state_region": "Florida",
    "country": "USA",
    "world_rank": 57,
    "us_rank": 37,
    "state_rank": "",
    "scopes": "us;world",
    "on_trip_route": false,
    "lat": 28.555272,
    "lon": -82.387871,
    "udisc_url": "",
    "year": 2026
  },
  {
    "course_name": "The Hideaway DGR: Roadrunner",
    "city": "Terrell",
    "state_region": "Texas",
    "country": "USA",
    "world_rank": 58,
    "us_rank": 38,
    "state_rank": "",
    "scopes": "us;world",
    "on_trip_route": false,
    "lat": 30.199074,
    "lon": -102.097488,
    "udisc_url": "",
    "year": 2026
  },
  {
    "course_name": "Hillcrest Farm Disc Golf",
    "city": "Bonshaw",
    "state_region": "PE",
    "country": "Canada",
    "world_rank": 39,
    "us_rank": "",
    "state_rank": "",
    "scopes": "world",
    "on_trip_route": false,
    "lat": 46.201949,
    "lon": -63.348458,
    "udisc_url": "",
    "year": 2026
  },
  {
    "course_name": "Lakeview DGC at Moraine State Park",
    "city": "West Liberty",
    "state_region": "Pennsylvania",
    "country": "USA",
    "world_rank": 61,
    "us_rank": 39,
    "state_rank": "",
    "scopes": "us;world",
    "on_trip_route": false,
    "lat": 41.007007,
    "lon": -80.052557,
    "udisc_url": "",
    "year": 2026
  },
  {
    "course_name": "Arvika Discgolf",
    "city": "Åmotfors",
    "state_region": "",
    "country": "Sweden",
    "world_rank": 40,
    "us_rank": "",
    "state_rank": "",
    "scopes": "world",
    "on_trip_route": false,
    "lat": 59.768849,
    "lon": 12.366868,
    "udisc_url": "",
    "year": 2026
  },
  {
    "course_name": "Lula O.G.",
    "city": "Lula",
    "state_region": "Georgia",
    "country": "USA",
    "world_rank": 64,
    "us_rank": 41,
    "state_rank": "",
    "scopes": "us;world",
    "on_trip_route": false,
    "lat": 34.386729,
    "lon": -83.683854,
    "udisc_url": "",
    "year": 2026
  },
  {
    "course_name": "Rolling Pines",
    "city": "Wilkesboro",
    "state_region": "North Carolina",
    "country": "USA",
    "world_rank": 65,
    "us_rank": 42,
    "state_rank": "",
    "scopes": "us;world",
    "on_trip_route": false,
    "lat": 36.148392,
    "lon": -81.151764,
    "udisc_url": "",
    "year": 2026
  },
  {
    "course_name": "Westy Acres",
    "city": "Greenfield",
    "state_region": "Massachusetts",
    "country": "USA",
    "world_rank": 66,
    "us_rank": 43,
    "state_rank": "",
    "scopes": "us;world",
    "on_trip_route": false,
    "lat": 42.587634,
    "lon": -72.600207,
    "udisc_url": "",
    "year": 2026
  },
  {
    "course_name": "Sibbe Disc Golf",
    "city": "Sipoo",
    "state_region": "",
    "country": "Finland",
    "world_rank": 44,
    "us_rank": "",
    "state_rank": "",
    "scopes": "world",
    "on_trip_route": false,
    "lat": 60.288199,
    "lon": 25.317649,
    "udisc_url": "",
    "year": 2026
  },
  {
    "course_name": "Sugaree",
    "city": "Newland",
    "state_region": "North Carolina",
    "country": "USA",
    "world_rank": 67,
    "us_rank": 44,
    "state_rank": "",
    "scopes": "us;world",
    "on_trip_route": false,
    "lat": 36.087348,
    "lon": -81.927336,
    "udisc_url": "",
    "year": 2026
  },
  {
    "course_name": "Flying Armadillo DGC: Gold Mini",
    "city": "San Marcos",
    "state_region": "Texas",
    "country": "USA",
    "world_rank": 74,
    "us_rank": 49,
    "state_rank": "",
    "scopes": "us;world",
    "on_trip_route": false,
    "lat": 29.882644,
    "lon": -97.940583,
    "udisc_url": "",
    "year": 2026
  },
  {
    "course_name": "Cold Hollow Disc Golf",
    "city": "Enosburg",
    "state_region": "Vermont",
    "country": "USA",
    "world_rank": 76,
    "us_rank": 50,
    "state_rank": "",
    "scopes": "us;world",
    "on_trip_route": false,
    "lat": 44.906669,
    "lon": -72.804578,
    "udisc_url": "",
    "year": 2026
  },
  {
    "course_name": "Iron Hoof",
    "city": "Conyers",
    "state_region": "Georgia",
    "country": "USA",
    "world_rank": 77,
    "us_rank": 51,
    "state_rank": "",
    "scopes": "us;world",
    "on_trip_route": false,
    "lat": 33.66761,
    "lon": -84.01769,
    "udisc_url": "",
    "year": 2026
  },
  {
    "course_name": "Milo McIver: Riverbend East",
    "city": "Estacada",
    "state_region": "Oregon",
    "country": "USA",
    "world_rank": 79,
    "us_rank": 53,
    "state_rank": "",
    "scopes": "us;world",
    "on_trip_route": false,
    "lat": 45.286469,
    "lon": -122.334259,
    "udisc_url": "",
    "year": 2026
  },
  {
    "course_name": "Valdres Discgolfpark",
    "city": "Leira i Valdres",
    "state_region": "",
    "country": "Norway",
    "world_rank": 53,
    "us_rank": "",
    "state_rank": "",
    "scopes": "world",
    "on_trip_route": false,
    "lat": 60.967522,
    "lon": 9.295242,
    "udisc_url": "",
    "year": 2026
  },
  {
    "course_name": "Little Mulberry Park",
    "city": "Dacula",
    "state_region": "Georgia",
    "country": "USA",
    "world_rank": 80,
    "us_rank": 54,
    "state_rank": "",
    "scopes": "us;world",
    "on_trip_route": false,
    "lat": 33.988717,
    "lon": -83.897957,
    "udisc_url": "",
    "year": 2026
  },
  {
    "course_name": "Kayak Point DGR: Red",
    "city": "Stanwood",
    "state_region": "Washington",
    "country": "USA",
    "world_rank": 81,
    "us_rank": 55,
    "state_rank": "",
    "scopes": "us;world",
    "on_trip_route": false,
    "lat": 48.24216,
    "lon": -122.352033,
    "udisc_url": "",
    "year": 2026
  },
  {
    "course_name": "Cannon Ridge",
    "city": "Fredericksburg",
    "state_region": "Virginia",
    "country": "USA",
    "world_rank": 83,
    "us_rank": 56,
    "state_rank": "",
    "scopes": "us;world",
    "on_trip_route": false,
    "lat": 38.279887,
    "lon": -77.486102,
    "udisc_url": "",
    "year": 2026
  },
  {
    "course_name": "Discgolf Terminalen Skellefteå",
    "city": "Skellefteå",
    "state_region": "",
    "country": "Sweden",
    "world_rank": 56,
    "us_rank": "",
    "state_rank": "",
    "scopes": "world",
    "on_trip_route": false,
    "lat": 64.752019,
    "lon": 20.959339,
    "udisc_url": "",
    "year": 2026
  },
  {
    "course_name": "North Cove Disc Golf: Boulders",
    "city": "Marion",
    "state_region": "North Carolina",
    "country": "USA",
    "world_rank": 84,
    "us_rank": 57,
    "state_rank": "",
    "scopes": "us;world",
    "on_trip_route": false,
    "lat": 35.684102,
    "lon": -82.009103,
    "udisc_url": "",
    "year": 2026
  },
  {
    "course_name": "Bud Hill",
    "city": "Memphis",
    "state_region": "Tennessee",
    "country": "USA",
    "world_rank": 85,
    "us_rank": 58,
    "state_rank": "",
    "scopes": "us;world",
    "on_trip_route": false,
    "lat": 35.146025,
    "lon": -90.051764,
    "udisc_url": "",
    "year": 2026
  },
  {
    "course_name": "Bradford Park",
    "city": "Huntersville",
    "state_region": "North Carolina",
    "country": "USA",
    "world_rank": 86,
    "us_rank": 59,
    "state_rank": "",
    "scopes": "us;world",
    "on_trip_route": false,
    "lat": 35.443967,
    "lon": -80.793533,
    "udisc_url": "",
    "year": 2026
  },
  {
    "course_name": "Puijo DiscGolf",
    "city": "Kuopio",
    "state_region": "",
    "country": "Finland",
    "world_rank": 59,
    "us_rank": "",
    "state_rank": "",
    "scopes": "world",
    "on_trip_route": false,
    "lat": 62.892463,
    "lon": 27.67836,
    "udisc_url": "",
    "year": 2026
  },
  {
    "course_name": "Muddy Run Disc Golf Course",
    "city": "Bethesda",
    "state_region": "Pennsylvania",
    "country": "USA",
    "world_rank": 87,
    "us_rank": 60,
    "state_rank": "",
    "scopes": "us;world",
    "on_trip_route": false,
    "lat": 39.845936,
    "lon": -76.303848,
    "udisc_url": "",
    "year": 2026
  },
  {
    "course_name": "Raptors Knoll Disc Golf Park",
    "city": "Langley Township",
    "state_region": "BC",
    "country": "Canada",
    "world_rank": 60,
    "us_rank": "",
    "state_rank": "",
    "scopes": "world",
    "on_trip_route": false,
    "lat": 49.120294,
    "lon": -122.659331,
    "udisc_url": "",
    "year": 2026
  },
  {
    "course_name": "Devils Grove Disc Golf: Devil",
    "city": "Lewiston",
    "state_region": "Maine",
    "country": "USA",
    "world_rank": 88,
    "us_rank": 61,
    "state_rank": "",
    "scopes": "us;world",
    "on_trip_route": false,
    "lat": 44.099072,
    "lon": -70.21771,
    "udisc_url": "",
    "year": 2026
  },
  {
    "course_name": "Caesar Ford Park: Championship",
    "city": "Xenia",
    "state_region": "Ohio",
    "country": "USA",
    "world_rank": 89,
    "us_rank": 62,
    "state_rank": "",
    "scopes": "us;world",
    "on_trip_route": false,
    "lat": 39.684782,
    "lon": -83.929653,
    "udisc_url": "",
    "year": 2026
  },
  {
    "course_name": "Eastern Meadows DGC",
    "city": "Östra Ryd",
    "state_region": "",
    "country": "Sweden",
    "world_rank": 62,
    "us_rank": "",
    "state_rank": "",
    "scopes": "world",
    "on_trip_route": false,
    "lat": 58.408026,
    "lon": 16.161819,
    "udisc_url": "",
    "year": 2026
  },
  {
    "course_name": "Broken Chains",
    "city": "Lincoln University",
    "state_region": "Pennsylvania",
    "country": "USA",
    "world_rank": 90,
    "us_rank": 63,
    "state_rank": "",
    "scopes": "us;world",
    "on_trip_route": false,
    "lat": 39.806552,
    "lon": -75.928706,
    "udisc_url": "",
    "year": 2026
  },
  {
    "course_name": "Sabattus Disc Golf: Falcon",
    "city": "Sabattus",
    "state_region": "Maine",
    "country": "USA",
    "world_rank": 93,
    "us_rank": 65,
    "state_rank": "",
    "scopes": "us;world",
    "on_trip_route": false,
    "lat": 44.120015,
    "lon": -70.107653,
    "udisc_url": "",
    "year": 2026
  },
  {
    "course_name": "Rocky Hills",
    "city": "Ovalo",
    "state_region": "Texas",
    "country": "USA",
    "world_rank": 94,
    "us_rank": 66,
    "state_rank": "",
    "scopes": "us;world",
    "on_trip_route": false,
    "lat": 32.172381,
    "lon": -99.807698,
    "udisc_url": "",
    "year": 2026
  },
  {
    "course_name": "Mayflower Hills",
    "city": "Roanoke",
    "state_region": "Virginia",
    "country": "USA",
    "world_rank": 96,
    "us_rank": 67,
    "state_rank": "",
    "scopes": "us;world",
    "on_trip_route": false,
    "lat": 37.240417,
    "lon": -79.858092,
    "udisc_url": "",
    "year": 2026
  },
  {
    "course_name": "The Preserve: Timberwolf",
    "city": "Clearwater",
    "state_region": "Minnesota",
    "country": "USA",
    "world_rank": 97,
    "us_rank": 68,
    "state_rank": "",
    "scopes": "us;world",
    "on_trip_route": false,
    "lat": 47.564383,
    "lon": -95.374784,
    "udisc_url": "",
    "year": 2026
  },
  {
    "course_name": "Sabattus Disc Golf: Eagle",
    "city": "Sabattus",
    "state_region": "Maine",
    "country": "USA",
    "world_rank": 100,
    "us_rank": 71,
    "state_rank": "",
    "scopes": "us;world",
    "on_trip_route": false,
    "lat": 44.120015,
    "lon": -70.107653,
    "udisc_url": "",
    "year": 2026
  },
  {
    "course_name": "Ørland Discgolfpark",
    "city": "Brekstad",
    "state_region": "",
    "country": "Norway",
    "world_rank": 71,
    "us_rank": "",
    "state_rank": "",
    "scopes": "world",
    "on_trip_route": false,
    "lat": 63.686872,
    "lon": 9.6665,
    "udisc_url": "",
    "year": 2026
  },
  {
    "course_name": "Løvbergsmoen Diskgolfpark",
    "city": "Elverum",
    "state_region": "",
    "country": "Norway",
    "world_rank": 72,
    "us_rank": "",
    "state_rank": "",
    "scopes": "world",
    "on_trip_route": false,
    "lat": 60.972803,
    "lon": 11.734442,
    "udisc_url": "",
    "year": 2026
  },
  {
    "course_name": "Silver Creek Park",
    "city": "Manitowoc",
    "state_region": "Wisconsin",
    "country": "USA",
    "world_rank": "",
    "us_rank": 72,
    "state_rank": "",
    "scopes": "us",
    "on_trip_route": false,
    "lat": 44.061206,
    "lon": -87.656918,
    "udisc_url": "",
    "year": 2026
  },
  {
    "course_name": "Eagle Ridge",
    "city": "Coshocton",
    "state_region": "Ohio",
    "country": "USA",
    "world_rank": "",
    "us_rank": 73,
    "state_rank": "",
    "scopes": "us",
    "on_trip_route": false,
    "lat": 40.290568,
    "lon": -81.927144,
    "udisc_url": "",
    "year": 2026
  },
  {
    "course_name": "Kudzu Cove Cabins",
    "city": "Guntersville",
    "state_region": "Alabama",
    "country": "USA",
    "world_rank": "",
    "us_rank": 74,
    "state_rank": "",
    "scopes": "us",
    "on_trip_route": false,
    "lat": 34.358147,
    "lon": -86.294704,
    "udisc_url": "",
    "year": 2026
  },
  {
    "course_name": "Quarry Run at Augusta Disc Golf",
    "city": "Augusta",
    "state_region": "Maine",
    "country": "USA",
    "world_rank": "",
    "us_rank": 75,
    "state_rank": "",
    "scopes": "us",
    "on_trip_route": false,
    "lat": 44.314803,
    "lon": -69.774394,
    "udisc_url": "",
    "year": 2026
  },
  {
    "course_name": "Vinbergs Discgolf",
    "city": "Falkenberg",
    "state_region": "",
    "country": "Sweden",
    "world_rank": 75,
    "us_rank": "",
    "state_rank": "",
    "scopes": "world",
    "on_trip_route": false,
    "lat": 56.904894,
    "lon": 12.491293,
    "udisc_url": "",
    "year": 2026
  },
  {
    "course_name": "Pineland Farms: The Patriot",
    "city": "New Gloucester",
    "state_region": "Maine",
    "country": "USA",
    "world_rank": "",
    "us_rank": 76,
    "state_rank": "",
    "scopes": "us",
    "on_trip_route": false,
    "lat": 43.963249,
    "lon": -70.281434,
    "udisc_url": "",
    "year": 2026
  },
  {
    "course_name": "Arrowhead Disc Golf Course",
    "city": "Louisville",
    "state_region": "Kentucky",
    "country": "USA",
    "world_rank": "",
    "us_rank": 77,
    "state_rank": "",
    "scopes": "us",
    "on_trip_route": false,
    "lat": 38.254238,
    "lon": -85.759407,
    "udisc_url": "",
    "year": 2026
  },
  {
    "course_name": "Punderson Disc Golf Course",
    "city": "Newbury",
    "state_region": "Ohio",
    "country": "USA",
    "world_rank": "",
    "us_rank": 78,
    "state_rank": "",
    "scopes": "us",
    "on_trip_route": false,
    "lat": 41.463386,
    "lon": -81.24427,
    "udisc_url": "",
    "year": 2026
  },
  {
    "course_name": "Pier Park",
    "city": "Portland",
    "state_region": "Oregon",
    "country": "USA",
    "world_rank": "",
    "us_rank": 79,
    "state_rank": "",
    "scopes": "us",
    "on_trip_route": false,
    "lat": 45.602136,
    "lon": -122.754924,
    "udisc_url": "",
    "year": 2026
  },
  {
    "course_name": "Parc des Familles DGC",
    "city": "Marrero",
    "state_region": "Louisiana",
    "country": "USA",
    "world_rank": "",
    "us_rank": 80,
    "state_rank": "",
    "scopes": "us",
    "on_trip_route": false,
    "lat": 29.899372,
    "lon": -90.100351,
    "udisc_url": "",
    "year": 2026
  },
  {
    "course_name": "Dino Hills DG Farm: Carnivore Valley",
    "city": "Walnut Springs",
    "state_region": "Texas",
    "country": "USA",
    "world_rank": "",
    "us_rank": 81,
    "state_rank": "",
    "scopes": "us",
    "on_trip_route": false,
    "lat": 32.057648,
    "lon": -97.749471,
    "udisc_url": "",
    "year": 2026
  },
  {
    "course_name": "Fålehagen DiscGolfPark",
    "city": "Motala",
    "state_region": "",
    "country": "Sweden",
    "world_rank": 82,
    "us_rank": "",
    "state_rank": "",
    "scopes": "world",
    "on_trip_route": false,
    "lat": 58.522923,
    "lon": 15.028385,
    "udisc_url": "",
    "year": 2026
  },
  {
    "course_name": "Tom Brown Park DGC",
    "city": "Tallahassee",
    "state_region": "Florida",
    "country": "USA",
    "world_rank": "",
    "us_rank": 83,
    "state_rank": "",
    "scopes": "us",
    "on_trip_route": false,
    "lat": 30.438083,
    "lon": -84.280933,
    "udisc_url": "",
    "year": 2026
  },
  {
    "course_name": "Top O' The Hill",
    "city": "Canterbury",
    "state_region": "New Hampshire",
    "country": "USA",
    "world_rank": "",
    "us_rank": 84,
    "state_rank": "",
    "scopes": "us",
    "on_trip_route": false,
    "lat": 43.337165,
    "lon": -71.565628,
    "udisc_url": "",
    "year": 2026
  },
  {
    "course_name": "Whistler's Bend",
    "city": "Roseburg",
    "state_region": "Oregon",
    "country": "USA",
    "world_rank": "",
    "us_rank": 85,
    "state_rank": "",
    "scopes": "us",
    "on_trip_route": false,
    "lat": 43.216505,
    "lon": -123.341738,
    "udisc_url": "",
    "year": 2026
  },
  {
    "course_name": "Woodland Valley: Black Bear",
    "city": "Limerick",
    "state_region": "Maine",
    "country": "USA",
    "world_rank": "",
    "us_rank": 86,
    "state_rank": "",
    "scopes": "us",
    "on_trip_route": false,
    "lat": 43.68847,
    "lon": -70.794858,
    "udisc_url": "",
    "year": 2026
  },
  {
    "course_name": "Wilderness",
    "city": "Montello",
    "state_region": "Wisconsin",
    "country": "USA",
    "world_rank": "",
    "us_rank": 88,
    "state_rank": "",
    "scopes": "us",
    "on_trip_route": false,
    "lat": 43.691929,
    "lon": -89.330994,
    "udisc_url": "",
    "year": 2026
  },
  {
    "course_name": "DeLaveaga Disc Golf Course",
    "city": "Santa Cruz",
    "state_region": "California",
    "country": "USA",
    "world_rank": "",
    "us_rank": 89,
    "state_rank": "",
    "scopes": "us",
    "on_trip_route": false,
    "lat": 37.005009,
    "lon": -121.996839,
    "udisc_url": "",
    "year": 2026
  },
  {
    "course_name": "Tjader Acres",
    "city": "Siren",
    "state_region": "Wisconsin",
    "country": "USA",
    "world_rank": "",
    "us_rank": 90,
    "state_rank": "",
    "scopes": "us",
    "on_trip_route": false,
    "lat": 45.787434,
    "lon": -92.381971,
    "udisc_url": "",
    "year": 2026
  },
  {
    "course_name": "Cactus Rock",
    "city": "Tuscaloosa",
    "state_region": "Alabama",
    "country": "USA",
    "world_rank": "",
    "us_rank": 91,
    "state_rank": "",
    "scopes": "us",
    "on_trip_route": false,
    "lat": 33.209561,
    "lon": -87.567526,
    "udisc_url": "",
    "year": 2026
  },
  {
    "course_name": "Spa Park",
    "city": "Taupō",
    "state_region": "",
    "country": "New Zealand",
    "world_rank": 91,
    "us_rank": "",
    "state_rank": "",
    "scopes": "world",
    "on_trip_route": false,
    "lat": -38.674183,
    "lon": 176.088882,
    "udisc_url": "",
    "year": 2026
  },
  {
    "course_name": "Camp Serene",
    "city": "Noti",
    "state_region": "Oregon",
    "country": "USA",
    "world_rank": "",
    "us_rank": 94,
    "state_rank": "",
    "scopes": "us",
    "on_trip_route": false,
    "lat": 44.059157,
    "lon": -123.449807,
    "udisc_url": "",
    "year": 2026
  },
  {
    "course_name": "Tampereen Frisbeegolfkeskus",
    "city": "Tampere",
    "state_region": "",
    "country": "Finland",
    "world_rank": 95,
    "us_rank": "",
    "state_rank": "",
    "scopes": "world",
    "on_trip_route": false,
    "lat": 61.497793,
    "lon": 23.761637,
    "udisc_url": "",
    "year": 2026
  },
  {
    "course_name": "The Fort",
    "city": "Ogden",
    "state_region": "Utah",
    "country": "USA",
    "world_rank": "",
    "us_rank": 95,
    "state_rank": "",
    "scopes": "us",
    "on_trip_route": false,
    "lat": 41.223005,
    "lon": -111.973843,
    "udisc_url": "",
    "year": 2026
  },
  {
    "course_name": "Red Hawk Ridge",
    "city": "Lula",
    "state_region": "Georgia",
    "country": "USA",
    "world_rank": "",
    "us_rank": 96,
    "state_rank": "",
    "scopes": "us",
    "on_trip_route": false,
    "lat": 34.387601,
    "lon": -83.666285,
    "udisc_url": "",
    "year": 2026
  },
  {
    "course_name": "Ashe County Park",
    "city": "Jefferson",
    "state_region": "North Carolina",
    "country": "USA",
    "world_rank": "",
    "us_rank": 97,
    "state_rank": "",
    "scopes": "us",
    "on_trip_route": false,
    "lat": 36.436891,
    "lon": -81.471893,
    "udisc_url": "",
    "year": 2026
  },
  {
    "course_name": "Shelton Springs",
    "city": "Shelton",
    "state_region": "Washington",
    "country": "USA",
    "world_rank": "",
    "us_rank": 99,
    "state_rank": "",
    "scopes": "us",
    "on_trip_route": false,
    "lat": 47.235057,
    "lon": -123.118589,
    "udisc_url": "",
    "year": 2026
  },
  {
    "course_name": "The Admiral",
    "city": "Semmes",
    "state_region": "Alabama",
    "country": "USA",
    "world_rank": "",
    "us_rank": 100,
    "state_rank": "",
    "scopes": "us",
    "on_trip_route": false,
    "lat": 30.751569,
    "lon": -88.235291,
    "udisc_url": "",
    "year": 2026
  }
]